{
  "type": "FeatureCollection",
  "features": [
    {
      "type": "Feature",
      "properties": {
        "cvegeo": "09012",
        "nombre": "Tlalpan",
        "area_municipio": 0.0270160022152949
      },
      "geometry": {
        "type": "Point",
        "coordinates": [
          -99.2062207957848,
          19.1983396766854
        ]
      }
    },
    {
      "type": "Feature",
      "properties": {
        "cvegeo": "09009",
        "nombre": "Milpa Alta",
        "area_municipio": 0.0256107734111389
      },
      "geometry": {
        "type": "Point",
        "coordinates": [
          -99.0510954209773,
          19.1394566006021
        ]
      }
    },
    {
      "type": "Feature",
      "properties": {
        "cvegeo": "09011",
        "nombre": "Tláhuac",
        "area_municipio": 0.00737807400517455
      },
      "geometry": {
        "type": "Point",
        "coordinates": [
          -99.0028216137269,
          19.2769983772049
        ]
      }
    },
    {
      "type": "Feature",
      "properties": {
        "cvegeo": "01007",
        "nombre": "Rincón de Romos",
        "area_municipio": 0.032962142193195
      },
      "geometry": {
        "type": "Point",
        "coordinates": [
          -102.340728727013,
          22.2674077480772
        ]
      }
    },
    {
      "type": "Feature",
      "properties": {
        "cvegeo": "01008",
        "nombre": "San José de Gracia",
        "area_municipio": 0.075875603251379
      },
      "geometry": {
        "type": "Point",
        "coordinates": [
          -102.525838719004,
          22.1466346068651
        ]
      }
    },
    {
      "type": "Feature",
      "properties": {
        "cvegeo": "01010",
        "nombre": "El Llano",
        "area_municipio": 0.0445073512955192
      },
      "geometry": {
        "type": "Point",
        "coordinates": [
          -102.03539852325,
          21.9215194322875
        ]
      }
    },
    {
      "type": "Feature",
      "properties": {
        "cvegeo": "01011",
        "nombre": "San Francisco de los Romo",
        "area_municipio": 0.0121756469214186
      },
      "geometry": {
        "type": "Point",
        "coordinates": [
          -102.229021384312,
          22.0330705100416
        ]
      }
    },
    {
      "type": "Feature",
      "properties": {
        "cvegeo": "27004",
        "nombre": "Centro",
        "area_municipio": 0.146554688231796
      },
      "geometry": {
        "type": "Point",
        "coordinates": [
          -92.8602107015958,
          18.0091035551431
        ]
      }
    },
    {
      "type": "Feature",
      "properties": {
        "cvegeo": "09014",
        "nombre": "Benito Juárez",
        "area_municipio": 0.00229614684843083
      },
      "geometry": {
        "type": "Point",
        "coordinates": [
          -99.1611346586059,
          19.3806424164308
        ]
      }
    },
    {
      "type": "Feature",
      "properties": {
        "cvegeo": "27016",
        "nombre": "Teapa",
        "area_municipio": 0.0358263716745015
      },
      "geometry": {
        "type": "Point",
        "coordinates": [
          -92.9523753738787,
          17.6233066481963
        ]
      }
    },
    {
      "type": "Feature",
      "properties": {
        "cvegeo": "27017",
        "nombre": "Tenosique",
        "area_municipio": 0.160088261720081
      },
      "geometry": {
        "type": "Point",
        "coordinates": [
          -91.2935589287537,
          17.4263763227265
        ]
      }
    },
    {
      "type": "Feature",
      "properties": {
        "cvegeo": "27008",
        "nombre": "Huimanguillo",
        "area_municipio": 0.316865342245694
      },
      "geometry": {
        "type": "Point",
        "coordinates": [
          -93.6998191365418,
          17.8263905304604
        ]
      }
    },
    {
      "type": "Feature",
      "properties": {
        "cvegeo": "27009",
        "nombre": "Jalapa",
        "area_municipio": 0.0504690143055968
      },
      "geometry": {
        "type": "Point",
        "coordinates": [
          -92.7870337623861,
          17.7635942697865
        ]
      }
    },
    {
      "type": "Feature",
      "properties": {
        "cvegeo": "27010",
        "nombre": "Jalpa de Méndez",
        "area_municipio": 0.0315709504198659
      },
      "geometry": {
        "type": "Point",
        "coordinates": [
          -93.0838764962451,
          18.2133053588932
        ]
      }
    },
    {
      "type": "Feature",
      "properties": {
        "cvegeo": "27003",
        "nombre": "Centla",
        "area_municipio": 0.23024209770696
      },
      "geometry": {
        "type": "Point",
        "coordinates": [
          -92.5862394581778,
          18.3614231156186
        ]
      }
    },
    {
      "type": "Feature",
      "properties": {
        "cvegeo": "27014",
        "nombre": "Paraíso",
        "area_municipio": 0.0348855253453265
      },
      "geometry": {
        "type": "Point",
        "coordinates": [
          -93.2005844951436,
          18.3811814481999
        ]
      }
    },
    {
      "type": "Feature",
      "properties": {
        "cvegeo": "27001",
        "nombre": "Balancán",
        "area_municipio": 0.304867684157762
      },
      "geometry": {
        "type": "Point",
        "coordinates": [
          -91.3117336429548,
          17.8048495185019
        ]
      }
    },
    {
      "type": "Feature",
      "properties": {
        "cvegeo": "27002",
        "nombre": "Cárdenas",
        "area_municipio": 0.174978759364863
      },
      "geometry": {
        "type": "Point",
        "coordinates": [
          -93.6467523460206,
          18.1701662233805
        ]
      }
    },
    {
      "type": "Feature",
      "properties": {
        "cvegeo": "27011",
        "nombre": "Jonuta",
        "area_municipio": 0.140381184984874
      },
      "geometry": {
        "type": "Point",
        "coordinates": [
          -92.1434213435544,
          18.0790750575691
        ]
      }
    },
    {
      "type": "Feature",
      "properties": {
        "cvegeo": "27012",
        "nombre": "Macuspana",
        "area_municipio": 0.20705360738015
      },
      "geometry": {
        "type": "Point",
        "coordinates": [
          -92.4586002233702,
          17.8450397235092
        ]
      }
    },
    {
      "type": "Feature",
      "properties": {
        "cvegeo": "27013",
        "nombre": "Nacajuca",
        "area_municipio": 0.0457174148669735
      },
      "geometry": {
        "type": "Point",
        "coordinates": [
          -92.9486233553145,
          18.1878649925825
        ]
      }
    },
    {
      "type": "Feature",
      "properties": {
        "cvegeo": "27006",
        "nombre": "Cunduacán",
        "area_municipio": 0.0510988951108953
      },
      "geometry": {
        "type": "Point",
        "coordinates": [
          -93.2206692327262,
          18.07657774249
        ]
      }
    },
    {
      "type": "Feature",
      "properties": {
        "cvegeo": "27007",
        "nombre": "Emiliano Zapata",
        "area_municipio": 0.0504502236827896
      },
      "geometry": {
        "type": "Point",
        "coordinates": [
          -91.6757826033572,
          17.7051236608923
        ]
      }
    },
    {
      "type": "Feature",
      "properties": {
        "cvegeo": "27005",
        "nombre": "Comalcalco",
        "area_municipio": 0.06564156784548
      },
      "geometry": {
        "type": "Point",
        "coordinates": [
          -93.336697652922,
          18.2869289553497
        ]
      }
    },
    {
      "type": "Feature",
      "properties": {
        "cvegeo": "27015",
        "nombre": "Tacotalpa",
        "area_municipio": 0.0625094321501688
      },
      "geometry": {
        "type": "Point",
        "coordinates": [
          -92.7326034634287,
          17.5282321044466
        ]
      }
    },
    {
      "type": "Feature",
      "properties": {
        "cvegeo": "16014",
        "nombre": "Coahuayana",
        "area_municipio": 0.0313521708733805
      },
      "geometry": {
        "type": "Point",
        "coordinates": [
          -103.61538020626,
          18.7428092661919
        ]
      }
    },
    {
      "type": "Feature",
      "properties": {
        "cvegeo": "16029",
        "nombre": "Churumuco",
        "area_municipio": 0.094984969296715
      },
      "geometry": {
        "type": "Point",
        "coordinates": [
          -101.616231882195,
          18.689244000004
        ]
      }
    },
    {
      "type": "Feature",
      "properties": {
        "cvegeo": "16015",
        "nombre": "Coalcomán de Vázquez Pallares",
        "area_municipio": 0.242050260088644
      },
      "geometry": {
        "type": "Point",
        "coordinates": [
          -103.085966832591,
          18.6796529978195
        ]
      }
    },
    {
      "type": "Feature",
      "properties": {
        "cvegeo": "16035",
        "nombre": "La Huacana",
        "area_municipio": 0.167329560131958
      },
      "geometry": {
        "type": "Point",
        "coordinates": [
          -101.921160857383,
          18.8419591581065
        ]
      }
    },
    {
      "type": "Feature",
      "properties": {
        "cvegeo": "16006",
        "nombre": "Apatzingán",
        "area_municipio": 0.140684584002346
      },
      "geometry": {
        "type": "Point",
        "coordinates": [
          -102.423322197803,
          18.9381731059421
        ]
      }
    },
    {
      "type": "Feature",
      "properties": {
        "cvegeo": "16040",
        "nombre": "Indaparapeo",
        "area_municipio": 0.0152103857999691
      },
      "geometry": {
        "type": "Point",
        "coordinates": [
          -100.942158060807,
          19.76602205746
        ]
      }
    },
    {
      "type": "Feature",
      "properties": {
        "cvegeo": "16025",
        "nombre": "Chilchota",
        "area_municipio": 0.0262649554226316
      },
      "geometry": {
        "type": "Point",
        "coordinates": [
          -102.101167572278,
          19.8133526289338
        ]
      }
    },
    {
      "type": "Feature",
      "properties": {
        "cvegeo": "16039",
        "nombre": "Huiramba",
        "area_municipio": 0.00680833755746055
      },
      "geometry": {
        "type": "Point",
        "coordinates": [
          -101.457061595077,
          19.5215421132432
        ]
      }
    },
    {
      "type": "Feature",
      "properties": {
        "cvegeo": "16065",
        "nombre": "Paracho",
        "area_municipio": 0.0210316152843567
      },
      "geometry": {
        "type": "Point",
        "coordinates": [
          -102.071051986934,
          19.6541265562848
        ]
      }
    },
    {
      "type": "Feature",
      "properties": {
        "cvegeo": "16041",
        "nombre": "Irimbo",
        "area_municipio": 0.0109135080918057
      },
      "geometry": {
        "type": "Point",
        "coordinates": [
          -100.467999643336,
          19.7168001301858
        ]
      }
    },
    {
      "type": "Feature",
      "properties": {
        "cvegeo": "09015",
        "nombre": "Cuauhtémoc",
        "area_municipio": 0.0027977932769661
      },
      "geometry": {
        "type": "Point",
        "coordinates": [
          -99.1490557563125,
          19.4313734293571
        ]
      }
    },
    {
      "type": "Feature",
      "properties": {
        "cvegeo": "16080",
        "nombre": "Senguio",
        "area_municipio": 0.0215723825888165
      },
      "geometry": {
        "type": "Point",
        "coordinates": [
          -100.342331716113,
          19.7461768263143
        ]
      }
    },
    {
      "type": "Feature",
      "properties": {
        "cvegeo": "16093",
        "nombre": "Tlalpujahua",
        "area_municipio": 0.0169993923276404
      },
      "geometry": {
        "type": "Point",
        "coordinates": [
          -100.206582598332,
          19.7798867605275
        ]
      }
    },
    {
      "type": "Feature",
      "properties": {
        "cvegeo": "16016",
        "nombre": "Coeneo",
        "area_municipio": 0.0339391317332474
      },
      "geometry": {
        "type": "Point",
        "coordinates": [
          -101.627250132235,
          19.795293875414
        ]
      }
    },
    {
      "type": "Feature",
      "properties": {
        "cvegeo": "16003",
        "nombre": "Álvaro Obregón",
        "area_municipio": 0.0137586497184977
      },
      "geometry": {
        "type": "Point",
        "coordinates": [
          -101.021757876052,
          19.8735368851902
        ]
      }
    },
    {
      "type": "Feature",
      "properties": {
        "cvegeo": "16107",
        "nombre": "Zacapu",
        "area_municipio": 0.0392052589107972
      },
      "geometry": {
        "type": "Point",
        "coordinates": [
          -101.827866791019,
          19.8241373163583
        ]
      }
    },
    {
      "type": "Feature",
      "properties": {
        "cvegeo": "16043",
        "nombre": "Jacona",
        "area_municipio": 0.0102421297316867
      },
      "geometry": {
        "type": "Point",
        "coordinates": [
          -102.316001946487,
          19.9349414440088
        ]
      }
    },
    {
      "type": "Feature",
      "properties": {
        "cvegeo": "16036",
        "nombre": "Huandacareo",
        "area_municipio": 0.00830493182215199
      },
      "geometry": {
        "type": "Point",
        "coordinates": [
          -101.277766782466,
          19.9961303535802
        ]
      }
    },
    {
      "type": "Feature",
      "properties": {
        "cvegeo": "16104",
        "nombre": "Villamar",
        "area_municipio": 0.030225133400882
      },
      "geometry": {
        "type": "Point",
        "coordinates": [
          -102.586401046946,
          19.9937616393016
        ]
      }
    },
    {
      "type": "Feature",
      "properties": {
        "cvegeo": "16051",
        "nombre": "Marcos Castellanos",
        "area_municipio": 0.0201211969107077
      },
      "geometry": {
        "type": "Point",
        "coordinates": [
          -102.967833872188,
          20.044823419276
        ]
      }
    },
    {
      "type": "Feature",
      "properties": {
        "cvegeo": "16076",
        "nombre": "Sahuayo",
        "area_municipio": 0.0110623889286088
      },
      "geometry": {
        "type": "Point",
        "coordinates": [
          -102.766297341211,
          20.0551405193568
        ]
      }
    },
    {
      "type": "Feature",
      "properties": {
        "cvegeo": "16103",
        "nombre": "Venustiano Carranza",
        "area_municipio": 0.0196664607553393
      },
      "geometry": {
        "type": "Point",
        "coordinates": [
          -102.666200154535,
          20.1430619177029
        ]
      }
    },
    {
      "type": "Feature",
      "properties": {
        "cvegeo": "16067",
        "nombre": "Penjamillo",
        "area_municipio": 0.0320665638317223
      },
      "geometry": {
        "type": "Point",
        "coordinates": [
          -101.8956066644,
          20.1038381114596
        ]
      }
    },
    {
      "type": "Feature",
      "properties": {
        "cvegeo": "16062",
        "nombre": "Pajacuarán",
        "area_municipio": 0.0147193647977073
      },
      "geometry": {
        "type": "Point",
        "coordinates": [
          -102.525737317266,
          20.1451574278155
        ]
      }
    },
    {
      "type": "Feature",
      "properties": {
        "cvegeo": "16011",
        "nombre": "Briseñas",
        "area_municipio": 0.00585216906290278
      },
      "geometry": {
        "type": "Point",
        "coordinates": [
          -102.589795328437,
          20.2375431889159
        ]
      }
    },
    {
      "type": "Feature",
      "properties": {
        "cvegeo": "09002",
        "nombre": "Azcapotzalco",
        "area_municipio": 0.00288458291006792
      },
      "geometry": {
        "type": "Point",
        "coordinates": [
          -99.1821069419395,
          19.4853286143881
        ]
      }
    },
    {
      "type": "Feature",
      "properties": {
        "cvegeo": "09003",
        "nombre": "Coyoacán",
        "area_municipio": 0.0046355289908249
      },
      "geometry": {
        "type": "Point",
        "coordinates": [
          -99.1503763518771,
          19.3266672538557
        ]
      }
    },
    {
      "type": "Feature",
      "properties": {
        "cvegeo": "09006",
        "nombre": "Iztacalco",
        "area_municipio": 0.00198626502106589
      },
      "geometry": {
        "type": "Point",
        "coordinates": [
          -99.0943297965674,
          19.3969118974158
        ]
      }
    },
    {
      "type": "Feature",
      "properties": {
        "cvegeo": "09004",
        "nombre": "Cuajimalpa de Morelos",
        "area_municipio": 0.00614380845304162
      },
      "geometry": {
        "type": "Point",
        "coordinates": [
          -99.3107285240074,
          19.3246343019344
        ]
      }
    },
    {
      "type": "Feature",
      "properties": {
        "cvegeo": "09005",
        "nombre": "Gustavo A. Madero",
        "area_municipio": 0.00756501978356271
      },
      "geometry": {
        "type": "Point",
        "coordinates": [
          -99.1158642086721,
          19.5040652081334
        ]
      }
    },
    {
      "type": "Feature",
      "properties": {
        "cvegeo": "09007",
        "nombre": "Iztapalapa",
        "area_municipio": 0.00972965971959557
      },
      "geometry": {
        "type": "Point",
        "coordinates": [
          -99.0567989642038,
          19.3491663203966
        ]
      }
    },
    {
      "type": "Feature",
      "properties": {
        "cvegeo": "09008",
        "nombre": "La Magdalena Contreras",
        "area_municipio": 0.00544999785626746
      },
      "geometry": {
        "type": "Point",
        "coordinates": [
          -99.2684129062711,
          19.2689765028253
        ]
      }
    },
    {
      "type": "Feature",
      "properties": {
        "cvegeo": "09013",
        "nombre": "Xochimilco",
        "area_municipio": 0.00980540009820209
      },
      "geometry": {
        "type": "Point",
        "coordinates": [
          -99.0903636045709,
          19.2451450458592
        ]
      }
    },
    {
      "type": "Feature",
      "properties": {
        "cvegeo": "09016",
        "nombre": "Miguel Hidalgo",
        "area_municipio": 0.00399056154170406
      },
      "geometry": {
        "type": "Point",
        "coordinates": [
          -99.2045669148511,
          19.4280623648456
        ]
      }
    },
    {
      "type": "Feature",
      "properties": {
        "cvegeo": "16113",
        "nombre": "José Sixto Verduzco",
        "area_municipio": 0.0189931498958278
      },
      "geometry": {
        "type": "Point",
        "coordinates": [
          -101.566932372513,
          20.256917257042
        ]
      }
    },
    {
      "type": "Feature",
      "properties": {
        "cvegeo": "16106",
        "nombre": "Yurécuaro",
        "area_municipio": 0.015081578554536
      },
      "geometry": {
        "type": "Point",
        "coordinates": [
          -102.219513918847,
          20.2992677952566
        ]
      }
    },
    {
      "type": "Feature",
      "properties": {
        "cvegeo": "22013",
        "nombre": "Peñamiller",
        "area_municipio": 0.0604100734071547
      },
      "geometry": {
        "type": "Point",
        "coordinates": [
          -99.829950092443,
          21.0976684679311
        ]
      }
    },
    {
      "type": "Feature",
      "properties": {
        "cvegeo": "22017",
        "nombre": "Tequisquiapan",
        "area_municipio": 0.0320161155220781
      },
      "geometry": {
        "type": "Point",
        "coordinates": [
          -99.9525639884767,
          20.5511729842473
        ]
      }
    },
    {
      "type": "Feature",
      "properties": {
        "cvegeo": "22015",
        "nombre": "San Joaquín",
        "area_municipio": 0.0240449358514618
      },
      "geometry": {
        "type": "Point",
        "coordinates": [
          -99.5207612014169,
          20.9826653017661
        ]
      }
    },
    {
      "type": "Feature",
      "properties": {
        "cvegeo": "22018",
        "nombre": "Tolimán",
        "area_municipio": 0.059098676753071
      },
      "geometry": {
        "type": "Point",
        "coordinates": [
          -99.9344400342307,
          20.9179618269086
        ]
      }
    },
    {
      "type": "Feature",
      "properties": {
        "cvegeo": "22003",
        "nombre": "Arroyo Seco",
        "area_municipio": 0.0637726470825197
      },
      "geometry": {
        "type": "Point",
        "coordinates": [
          -99.6356043296726,
          21.4092385934994
        ]
      }
    },
    {
      "type": "Feature",
      "properties": {
        "cvegeo": "22016",
        "nombre": "San Juan del Río",
        "area_municipio": 0.0666965415682338
      },
      "geometry": {
        "type": "Point",
        "coordinates": [
          -100.000380010054,
          20.3689115355144
        ]
      }
    },
    {
      "type": "Feature",
      "properties": {
        "cvegeo": "22008",
        "nombre": "Huimilpan",
        "area_municipio": 0.033588034640147
      },
      "geometry": {
        "type": "Point",
        "coordinates": [
          -100.31421287413,
          20.4038437618675
        ]
      }
    },
    {
      "type": "Feature",
      "properties": {
        "cvegeo": "22009",
        "nombre": "Jalpan de Serra",
        "area_municipio": 0.103303697940714
      },
      "geometry": {
        "type": "Point",
        "coordinates": [
          -99.3315905108621,
          21.3745727711655
        ]
      }
    },
    {
      "type": "Feature",
      "properties": {
        "cvegeo": "22012",
        "nombre": "Pedro Escobedo",
        "area_municipio": 0.0279822813311025
      },
      "geometry": {
        "type": "Point",
        "coordinates": [
          -100.172427354289,
          20.4719578180019
        ]
      }
    },
    {
      "type": "Feature",
      "properties": {
        "cvegeo": "22006",
        "nombre": "Corregidora",
        "area_municipio": 0.0203372742431419
      },
      "geometry": {
        "type": "Point",
        "coordinates": [
          -100.44107488832,
          20.4854420727949
        ]
      }
    },
    {
      "type": "Feature",
      "properties": {
        "cvegeo": "22010",
        "nombre": "Landa de Matamoros",
        "area_municipio": 0.0626034109040245
      },
      "geometry": {
        "type": "Point",
        "coordinates": [
          -99.191825383327,
          21.2576856789676
        ]
      }
    },
    {
      "type": "Feature",
      "properties": {
        "cvegeo": "22004",
        "nombre": "Cadereyta de Montes",
        "area_municipio": 0.1168903811429
      },
      "geometry": {
        "type": "Point",
        "coordinates": [
          -99.6570260553437,
          20.7913847300005
        ]
      }
    },
    {
      "type": "Feature",
      "properties": {
        "cvegeo": "09017",
        "nombre": "Venustiano Carranza",
        "area_municipio": 0.0029129192276149
      },
      "geometry": {
        "type": "Point",
        "coordinates": [
          -99.0931057951861,
          19.4304954545606
        ]
      }
    },
    {
      "type": "Feature",
      "properties": {
        "cvegeo": "09010",
        "nombre": "Álvaro Obregón",
        "area_municipio": 0.00824417802911987
      },
      "geometry": {
        "type": "Point",
        "coordinates": [
          -99.2468197121262,
          19.33617556144
        ]
      }
    },
    {
      "type": "Feature",
      "properties": {
        "cvegeo": "22001",
        "nombre": "Amealco de Bonfil",
        "area_municipio": 0.061641756500305
      },
      "geometry": {
        "type": "Point",
        "coordinates": [
          -100.098632680592,
          20.1749104690053
        ]
      }
    },
    {
      "type": "Feature",
      "properties": {
        "cvegeo": "22002",
        "nombre": "Pinal de Amoles",
        "area_municipio": 0.0619144902951618
      },
      "geometry": {
        "type": "Point",
        "coordinates": [
          -99.5926880121165,
          21.1417418475803
        ]
      }
    },
    {
      "type": "Feature",
      "properties": {
        "cvegeo": "22005",
        "nombre": "Colón",
        "area_municipio": 0.0702780044705825
      },
      "geometry": {
        "type": "Point",
        "coordinates": [
          -100.100570701816,
          20.758267159528
        ]
      }
    },
    {
      "type": "Feature",
      "properties": {
        "cvegeo": "01004",
        "nombre": "Cosío",
        "area_municipio": 0.0113750209850932
      },
      "geometry": {
        "type": "Point",
        "coordinates": [
          -102.297041660301,
          22.3606267381787
        ]
      }
    },
    {
      "type": "Feature",
      "properties": {
        "cvegeo": "01001",
        "nombre": "Aguascalientes",
        "area_municipio": 0.102899647216164
      },
      "geometry": {
        "type": "Point",
        "coordinates": [
          -102.29580290181,
          21.8114362311288
        ]
      }
    },
    {
      "type": "Feature",
      "properties": {
        "cvegeo": "01002",
        "nombre": "Asientos",
        "area_municipio": 0.0480565301986894
      },
      "geometry": {
        "type": "Point",
        "coordinates": [
          -102.045638070205,
          22.1265081636695
        ]
      }
    },
    {
      "type": "Feature",
      "properties": {
        "cvegeo": "01003",
        "nombre": "Calvillo",
        "area_municipio": 0.0815184721774558
      },
      "geometry": {
        "type": "Point",
        "coordinates": [
          -102.704903939268,
          21.9006944866597
        ]
      }
    },
    {
      "type": "Feature",
      "properties": {
        "cvegeo": "01005",
        "nombre": "Jesús María",
        "area_municipio": 0.0441440600366783
      },
      "geometry": {
        "type": "Point",
        "coordinates": [
          -102.445649260009,
          21.9321175054569
        ]
      }
    },
    {
      "type": "Feature",
      "properties": {
        "cvegeo": "01006",
        "nombre": "Pabellón de Arteaga",
        "area_municipio": 0.0173080924050631
      },
      "geometry": {
        "type": "Point",
        "coordinates": [
          -102.301677224225,
          22.1045423635792
        ]
      }
    },
    {
      "type": "Feature",
      "properties": {
        "cvegeo": "01009",
        "nombre": "Tepezalá",
        "area_municipio": 0.0203288852994521
      },
      "geometry": {
        "type": "Point",
        "coordinates": [
          -102.192130586914,
          22.2369737898461
        ]
      }
    },
    {
      "type": "Feature",
      "properties": {
        "cvegeo": "05037",
        "nombre": "Villa Unión",
        "area_municipio": 0.17028559544236
      },
      "geometry": {
        "type": "Point",
        "coordinates": [
          -100.780308223667,
          28.0973926971229
        ]
      }
    },
    {
      "type": "Feature",
      "properties": {
        "cvegeo": "05019",
        "nombre": "Morelos",
        "area_municipio": 0.0588110854639105
      },
      "geometry": {
        "type": "Point",
        "coordinates": [
          -101.083351150633,
          28.3277473903379
        ]
      }
    },
    {
      "type": "Feature",
      "properties": {
        "cvegeo": "05023",
        "nombre": "Ocampo",
        "area_municipio": 2.38684980052203
      },
      "geometry": {
        "type": "Point",
        "coordinates": [
          -102.892888914215,
          27.9656187000451
        ]
      }
    },
    {
      "type": "Feature",
      "properties": {
        "cvegeo": "22007",
        "nombre": "Ezequiel Montes",
        "area_municipio": 0.0260224133625386
      },
      "geometry": {
        "type": "Point",
        "coordinates": [
          -99.8666885964372,
          20.6492826186165
        ]
      }
    },
    {
      "type": "Feature",
      "properties": {
        "cvegeo": "22011",
        "nombre": "El Marqués",
        "area_municipio": 0.0648301625948192
      },
      "geometry": {
        "type": "Point",
        "coordinates": [
          -100.278617513955,
          20.7202282861455
        ]
      }
    },
    {
      "type": "Feature",
      "properties": {
        "cvegeo": "22014",
        "nombre": "Querétaro",
        "area_municipio": 0.0592069190866538
      },
      "geometry": {
        "type": "Point",
        "coordinates": [
          -100.452710293863,
          20.7288053752382
        ]
      }
    },
    {
      "type": "Feature",
      "properties": {
        "cvegeo": "25006",
        "nombre": "Culiacán",
        "area_municipio": 0.562284181566114
      },
      "geometry": {
        "type": "Point",
        "coordinates": [
          -107.266653857494,
          24.6514902984439
        ]
      }
    },
    {
      "type": "Feature",
      "properties": {
        "cvegeo": "25009",
        "nombre": "Escuinapa",
        "area_municipio": 0.136655347694029
      },
      "geometry": {
        "type": "Point",
        "coordinates": [
          -105.685761046937,
          22.7240947305983
        ]
      }
    },
    {
      "type": "Feature",
      "properties": {
        "cvegeo": "25002",
        "nombre": "Angostura",
        "area_municipio": 0.17055610721207
      },
      "geometry": {
        "type": "Point",
        "coordinates": [
          -108.141463002519,
          25.1460968856231
        ]
      }
    },
    {
      "type": "Feature",
      "properties": {
        "cvegeo": "25004",
        "nombre": "Concordia",
        "area_municipio": 0.191466238558521
      },
      "geometry": {
        "type": "Point",
        "coordinates": [
          -105.991787780857,
          23.4141686573454
        ]
      }
    },
    {
      "type": "Feature",
      "properties": {
        "cvegeo": "25015",
        "nombre": "Salvador Alvarado",
        "area_municipio": 0.0694081189907181
      },
      "geometry": {
        "type": "Point",
        "coordinates": [
          -108.076049517856,
          25.4184550384391
        ]
      }
    },
    {
      "type": "Feature",
      "properties": {
        "cvegeo": "25016",
        "nombre": "San Ignacio",
        "area_municipio": 0.449731472839288
      },
      "geometry": {
        "type": "Point",
        "coordinates": [
          -106.370176409324,
          23.9544947559419
        ]
      }
    },
    {
      "type": "Feature",
      "properties": {
        "cvegeo": "25014",
        "nombre": "Rosario",
        "area_municipio": 0.232149057206706
      },
      "geometry": {
        "type": "Point",
        "coordinates": [
          -105.805204840559,
          23.0562348876119
        ]
      }
    },
    {
      "type": "Feature",
      "properties": {
        "cvegeo": "25005",
        "nombre": "Cosalá",
        "area_municipio": 0.193446148175673
      },
      "geometry": {
        "type": "Point",
        "coordinates": [
          -106.799435132274,
          24.4814837601408
        ]
      }
    },
    {
      "type": "Feature",
      "properties": {
        "cvegeo": "25007",
        "nombre": "Choix",
        "area_municipio": 0.291494773269061
      },
      "geometry": {
        "type": "Point",
        "coordinates": [
          -108.277041681854,
          26.6803064126326
        ]
      }
    },
    {
      "type": "Feature",
      "properties": {
        "cvegeo": "25017",
        "nombre": "Sinaloa",
        "area_municipio": 0.570161935140598
      },
      "geometry": {
        "type": "Point",
        "coordinates": [
          -108.110320393446,
          25.9687897948008
        ]
      }
    },
    {
      "type": "Feature",
      "properties": {
        "cvegeo": "25012",
        "nombre": "Mazatlán",
        "area_municipio": 0.223827931214635
      },
      "geometry": {
        "type": "Point",
        "coordinates": [
          -106.305962610019,
          23.4684161601098
        ]
      }
    },
    {
      "type": "Feature",
      "properties": {
        "cvegeo": "25001",
        "nombre": "Ahome",
        "area_municipio": 0.359897656922124
      },
      "geometry": {
        "type": "Point",
        "coordinates": [
          -109.133198502198,
          25.8956480146584
        ]
      }
    },
    {
      "type": "Feature",
      "properties": {
        "cvegeo": "25010",
        "nombre": "El Fuerte",
        "area_municipio": 0.376743135678537
      },
      "geometry": {
        "type": "Point",
        "coordinates": [
          -108.678997130498,
          26.2553211277186
        ]
      }
    },
    {
      "type": "Feature",
      "properties": {
        "cvegeo": "25008",
        "nombre": "Elota",
        "area_municipio": 0.145867017163907
      },
      "geometry": {
        "type": "Point",
        "coordinates": [
          -106.842137647938,
          24.0433902526541
        ]
      }
    },
    {
      "type": "Feature",
      "properties": {
        "cvegeo": "25011",
        "nombre": "Guasave",
        "area_municipio": 0.263880819778876
      },
      "geometry": {
        "type": "Point",
        "coordinates": [
          -108.558191866164,
          25.5345967006564
        ]
      }
    },
    {
      "type": "Feature",
      "properties": {
        "cvegeo": "25003",
        "nombre": "Badiraguato",
        "area_municipio": 0.434560429752583
      },
      "geometry": {
        "type": "Point",
        "coordinates": [
          -107.395964731385,
          25.5908547134758
        ]
      }
    },
    {
      "type": "Feature",
      "properties": {
        "cvegeo": "25018",
        "nombre": "Navolato",
        "area_municipio": 0.207966823573255
      },
      "geometry": {
        "type": "Point",
        "coordinates": [
          -107.764597617653,
          24.7232523148872
        ]
      }
    },
    {
      "type": "Feature",
      "properties": {
        "cvegeo": "25013",
        "nombre": "Mocorito",
        "area_municipio": 0.251167470583817
      },
      "geometry": {
        "type": "Point",
        "coordinates": [
          -107.779586515407,
          25.3599209418405
        ]
      }
    },
    {
      "type": "Feature",
      "properties": {
        "cvegeo": "17010",
        "nombre": "Jantetelco",
        "area_municipio": 0.00875848385737097
      },
      "geometry": {
        "type": "Point",
        "coordinates": [
          -98.7647112250221,
          18.6854054142322
        ]
      }
    },
    {
      "type": "Feature",
      "properties": {
        "cvegeo": "17012",
        "nombre": "Jojutla",
        "area_municipio": 0.0131344164702165
      },
      "geometry": {
        "type": "Point",
        "coordinates": [
          -99.2212703603049,
          18.5867644767025
        ]
      }
    },
    {
      "type": "Feature",
      "properties": {
        "cvegeo": "17014",
        "nombre": "Mazatepec",
        "area_municipio": 0.0049596135224028
      },
      "geometry": {
        "type": "Point",
        "coordinates": [
          -99.3654165986524,
          18.6859154209717
        ]
      }
    },
    {
      "type": "Feature",
      "properties": {
        "cvegeo": "05008",
        "nombre": "Escobedo",
        "area_municipio": 0.0934422920764133
      },
      "geometry": {
        "type": "Point",
        "coordinates": [
          -101.279589476043,
          27.3060652359051
        ]
      }
    },
    {
      "type": "Feature",
      "properties": {
        "cvegeo": "05006",
        "nombre": "Castaños",
        "area_municipio": 0.302893882811387
      },
      "geometry": {
        "type": "Point",
        "coordinates": [
          -101.386925243725,
          26.5862387267117
        ]
      }
    },
    {
      "type": "Feature",
      "properties": {
        "cvegeo": "05009",
        "nombre": "Francisco I. Madero",
        "area_municipio": 0.254028615380798
      },
      "geometry": {
        "type": "Point",
        "coordinates": [
          -103.180857406146,
          26.3201457611898
        ]
      }
    },
    {
      "type": "Feature",
      "properties": {
        "cvegeo": "17026",
        "nombre": "Tlayacapan",
        "area_municipio": 0.00490680153218236
      },
      "geometry": {
        "type": "Point",
        "coordinates": [
          -98.9750330059953,
          18.9540275393403
        ]
      }
    },
    {
      "type": "Feature",
      "properties": {
        "cvegeo": "05038",
        "nombre": "Zaragoza",
        "area_municipio": 0.733791040063344
      },
      "geometry": {
        "type": "Point",
        "coordinates": [
          -101.39501144755,
          28.8119741748867
        ]
      }
    },
    {
      "type": "Feature",
      "properties": {
        "cvegeo": "05002",
        "nombre": "Acuña",
        "area_municipio": 1.06592066976332
      },
      "geometry": {
        "type": "Point",
        "coordinates": [
          -102.010026648748,
          29.4326023203045
        ]
      }
    },
    {
      "type": "Feature",
      "properties": {
        "cvegeo": "05035",
        "nombre": "Torreón",
        "area_municipio": 0.114865596162873
      },
      "geometry": {
        "type": "Point",
        "coordinates": [
          -103.248919336174,
          25.1700752058888
        ]
      }
    },
    {
      "type": "Feature",
      "properties": {
        "cvegeo": "05036",
        "nombre": "Viesca",
        "area_municipio": 0.394329354549652
      },
      "geometry": {
        "type": "Point",
        "coordinates": [
          -102.92496830444,
          25.2218689567792
        ]
      }
    },
    {
      "type": "Feature",
      "properties": {
        "cvegeo": "05029",
        "nombre": "Sacramento",
        "area_municipio": 0.0262976155691109
      },
      "geometry": {
        "type": "Point",
        "coordinates": [
          -101.75649408485,
          26.9398325686277
        ]
      }
    },
    {
      "type": "Feature",
      "properties": {
        "cvegeo": "05031",
        "nombre": "San Buenaventura",
        "area_municipio": 0.590242909122485
      },
      "geometry": {
        "type": "Point",
        "coordinates": [
          -101.968879172959,
          27.8401293475372
        ]
      }
    },
    {
      "type": "Feature",
      "properties": {
        "cvegeo": "05030",
        "nombre": "Saltillo",
        "area_municipio": 0.502652654493533
      },
      "geometry": {
        "type": "Point",
        "coordinates": [
          -101.125108692432,
          25.0291475927704
        ]
      }
    },
    {
      "type": "Feature",
      "properties": {
        "cvegeo": "20238",
        "nombre": "San Martín de los Cansecos",
        "area_municipio": 0.000704000773086
      },
      "geometry": {
        "type": "Point",
        "coordinates": [
          -96.7260679703115,
          16.6560543720637
        ]
      }
    },
    {
      "type": "Feature",
      "properties": {
        "cvegeo": "05024",
        "nombre": "Parras",
        "area_municipio": 0.953627727567392
      },
      "geometry": {
        "type": "Point",
        "coordinates": [
          -102.11466802929,
          25.5038717166688
        ]
      }
    },
    {
      "type": "Feature",
      "properties": {
        "cvegeo": "05026",
        "nombre": "Progreso",
        "area_municipio": 0.263438107924007
      },
      "geometry": {
        "type": "Point",
        "coordinates": [
          -101.021481989835,
          27.4214224056787
        ]
      }
    },
    {
      "type": "Feature",
      "properties": {
        "cvegeo": "05004",
        "nombre": "Arteaga",
        "area_municipio": 0.14664144079503
      },
      "geometry": {
        "type": "Point",
        "coordinates": [
          -100.642369721343,
          25.3413576977384
        ]
      }
    },
    {
      "type": "Feature",
      "properties": {
        "cvegeo": "20368",
        "nombre": "Santa Catarina Minas",
        "area_municipio": 0.00307911057444007
      },
      "geometry": {
        "type": "Point",
        "coordinates": [
          -96.6126887700361,
          16.7914700832177
        ]
      }
    },
    {
      "type": "Feature",
      "properties": {
        "cvegeo": "20407",
        "nombre": "Santa María Chimalapa",
        "area_municipio": 0.385738249681239
      },
      "geometry": {
        "type": "Point",
        "coordinates": [
          -94.3885958489847,
          16.9469170101801
        ]
      }
    },
    {
      "type": "Feature",
      "properties": {
        "cvegeo": "20413",
        "nombre": "Santa María Huatulco",
        "area_municipio": 0.0432070247489893
      },
      "geometry": {
        "type": "Point",
        "coordinates": [
          -96.2232502841608,
          15.7962445682434
        ]
      }
    },
    {
      "type": "Feature",
      "properties": {
        "cvegeo": "05007",
        "nombre": "Cuatro Ciénegas",
        "area_municipio": 0.967891792383343
      },
      "geometry": {
        "type": "Point",
        "coordinates": [
          -102.298982672273,
          26.6991038674979
        ]
      }
    },
    {
      "type": "Feature",
      "properties": {
        "cvegeo": "05005",
        "nombre": "Candela",
        "area_municipio": 0.192412554035875
      },
      "geometry": {
        "type": "Point",
        "coordinates": [
          -100.799250401137,
          26.8524527707194
        ]
      }
    },
    {
      "type": "Feature",
      "properties": {
        "cvegeo": "12005",
        "nombre": "Alpoyeca",
        "area_municipio": 0.00799303401391786
      },
      "geometry": {
        "type": "Point",
        "coordinates": [
          -98.5105691813188,
          17.6422353163238
        ]
      }
    },
    {
      "type": "Feature",
      "properties": {
        "cvegeo": "12036",
        "nombre": "Igualapa",
        "area_municipio": 0.0165429057318326
      },
      "geometry": {
        "type": "Point",
        "coordinates": [
          -98.4932844898115,
          16.8017382785982
        ]
      }
    },
    {
      "type": "Feature",
      "properties": {
        "cvegeo": "12052",
        "nombre": "San Luis Acatlán",
        "area_municipio": 0.0930846863355103
      },
      "geometry": {
        "type": "Point",
        "coordinates": [
          -98.7510768960731,
          16.876357722749
        ]
      }
    },
    {
      "type": "Feature",
      "properties": {
        "cvegeo": "12081",
        "nombre": "Iliatenco",
        "area_municipio": 0.0203924164074929
      },
      "geometry": {
        "type": "Point",
        "coordinates": [
          -98.6378770885462,
          17.0471031427592
        ]
      }
    },
    {
      "type": "Feature",
      "properties": {
        "cvegeo": "12050",
        "nombre": "Pungarabato",
        "area_municipio": 0.0107979950281119
      },
      "geometry": {
        "type": "Point",
        "coordinates": [
          -100.611472494533,
          18.345624429839
        ]
      }
    },
    {
      "type": "Feature",
      "properties": {
        "cvegeo": "05010",
        "nombre": "Frontera",
        "area_municipio": 0.0415767147638857
      },
      "geometry": {
        "type": "Point",
        "coordinates": [
          -101.528272882125,
          26.9476978830722
        ]
      }
    },
    {
      "type": "Feature",
      "properties": {
        "cvegeo": "12030",
        "nombre": "Florencio Villarreal",
        "area_municipio": 0.0240933504440267
      },
      "geometry": {
        "type": "Point",
        "coordinates": [
          -99.1342199286685,
          16.6929316612557
        ]
      }
    },
    {
      "type": "Feature",
      "properties": {
        "cvegeo": "12079",
        "nombre": "José Joaquín de Herrera",
        "area_municipio": 0.0112252045408934
      },
      "geometry": {
        "type": "Point",
        "coordinates": [
          -98.9959400607759,
          17.4426344938108
        ]
      }
    },
    {
      "type": "Feature",
      "properties": {
        "cvegeo": "12049",
        "nombre": "Pilcaya",
        "area_municipio": 0.0138998510149587
      },
      "geometry": {
        "type": "Point",
        "coordinates": [
          -99.6078300411523,
          18.7042323347063
        ]
      }
    },
    {
      "type": "Feature",
      "properties": {
        "cvegeo": "12044",
        "nombre": "Mochitlán",
        "area_municipio": 0.0435727691339307
      },
      "geometry": {
        "type": "Point",
        "coordinates": [
          -99.370597905344,
          17.3368413843467
        ]
      }
    },
    {
      "type": "Feature",
      "properties": {
        "cvegeo": "05011",
        "nombre": "General Cepeda",
        "area_municipio": 0.237155016413293
      },
      "geometry": {
        "type": "Point",
        "coordinates": [
          -101.55103995041,
          25.5216906154221
        ]
      }
    },
    {
      "type": "Feature",
      "properties": {
        "cvegeo": "05012",
        "nombre": "Guerrero",
        "area_municipio": 0.268736577410415
      },
      "geometry": {
        "type": "Point",
        "coordinates": [
          -100.393792546616,
          28.0974067293574
        ]
      }
    },
    {
      "type": "Feature",
      "properties": {
        "cvegeo": "05014",
        "nombre": "Jiménez",
        "area_municipio": 0.20380043233152
      },
      "geometry": {
        "type": "Point",
        "coordinates": [
          -100.951264062303,
          29.0027022857818
        ]
      }
    },
    {
      "type": "Feature",
      "properties": {
        "cvegeo": "05017",
        "nombre": "Matamoros",
        "area_municipio": 0.0724068485619984
      },
      "geometry": {
        "type": "Point",
        "coordinates": [
          -103.215063693596,
          25.559824850613
        ]
      }
    },
    {
      "type": "Feature",
      "properties": {
        "cvegeo": "15125",
        "nombre": "Tonanitla",
        "area_municipio": 0.000778775399859324
      },
      "geometry": {
        "type": "Point",
        "coordinates": [
          -99.0583621318048,
          19.6818301167573
        ]
      }
    },
    {
      "type": "Feature",
      "properties": {
        "cvegeo": "05018",
        "nombre": "Monclova",
        "area_municipio": 0.113694928687352
      },
      "geometry": {
        "type": "Point",
        "coordinates": [
          -101.194393952108,
          26.8968567845984
        ]
      }
    },
    {
      "type": "Feature",
      "properties": {
        "cvegeo": "05020",
        "nombre": "Múzquiz",
        "area_municipio": 0.763207077578751
      },
      "geometry": {
        "type": "Point",
        "coordinates": [
          -101.900466299025,
          28.4030179616627
        ]
      }
    },
    {
      "type": "Feature",
      "properties": {
        "cvegeo": "05021",
        "nombre": "Nadadores",
        "area_municipio": 0.0652863636516623
      },
      "geometry": {
        "type": "Point",
        "coordinates": [
          -101.765425579477,
          27.2277313566256
        ]
      }
    },
    {
      "type": "Feature",
      "properties": {
        "cvegeo": "05001",
        "nombre": "Abasolo",
        "area_municipio": 0.0676451087863042
      },
      "geometry": {
        "type": "Point",
        "coordinates": [
          -101.245782375843,
          27.1223946855874
        ]
      }
    },
    {
      "type": "Feature",
      "properties": {
        "cvegeo": "05022",
        "nombre": "Nava",
        "area_municipio": 0.0836743681315079
      },
      "geometry": {
        "type": "Point",
        "coordinates": [
          -100.620488653584,
          28.4964386647499
        ]
      }
    },
    {
      "type": "Feature",
      "properties": {
        "cvegeo": "05025",
        "nombre": "Piedras Negras",
        "area_municipio": 0.0438388783500825
      },
      "geometry": {
        "type": "Point",
        "coordinates": [
          -100.614469714757,
          28.779820296245
        ]
      }
    },
    {
      "type": "Feature",
      "properties": {
        "cvegeo": "05027",
        "nombre": "Ramos Arizpe",
        "area_municipio": 0.608519711524992
      },
      "geometry": {
        "type": "Point",
        "coordinates": [
          -101.282065268533,
          25.9137475963076
        ]
      }
    },
    {
      "type": "Feature",
      "properties": {
        "cvegeo": "05003",
        "nombre": "Allende",
        "area_municipio": 0.0231444459014329
      },
      "geometry": {
        "type": "Point",
        "coordinates": [
          -100.916002830896,
          28.2783482785469
        ]
      }
    },
    {
      "type": "Feature",
      "properties": {
        "cvegeo": "05028",
        "nombre": "Sabinas",
        "area_municipio": 0.18117546280211
      },
      "geometry": {
        "type": "Point",
        "coordinates": [
          -101.143000649127,
          27.9228716580607
        ]
      }
    },
    {
      "type": "Feature",
      "properties": {
        "cvegeo": "12015",
        "nombre": "Buenavista de Cuéllar",
        "area_municipio": 0.0260005050831942
      },
      "geometry": {
        "type": "Point",
        "coordinates": [
          -99.4207333651003,
          18.4615698580535
        ]
      }
    },
    {
      "type": "Feature",
      "properties": {
        "cvegeo": "12062",
        "nombre": "Tlacoachistlahuaca",
        "area_municipio": 0.0680992639567771
      },
      "geometry": {
        "type": "Point",
        "coordinates": [
          -98.2771272152332,
          16.9390612349514
        ]
      }
    },
    {
      "type": "Feature",
      "properties": {
        "cvegeo": "12048",
        "nombre": "Petatlán",
        "area_municipio": 0.167859008394151
      },
      "geometry": {
        "type": "Point",
        "coordinates": [
          -101.160331359822,
          17.6200960413948
        ]
      }
    },
    {
      "type": "Feature",
      "properties": {
        "cvegeo": "12003",
        "nombre": "Ajuchitlán del Progreso",
        "area_municipio": 0.170078139925034
      },
      "geometry": {
        "type": "Point",
        "coordinates": [
          -100.607733883336,
          17.9190154263262
        ]
      }
    },
    {
      "type": "Feature",
      "properties": {
        "cvegeo": "05033",
        "nombre": "San Pedro",
        "area_municipio": 0.644529238537531
      },
      "geometry": {
        "type": "Point",
        "coordinates": [
          -102.717997217941,
          26.0840422452014
        ]
      }
    },
    {
      "type": "Feature",
      "properties": {
        "cvegeo": "05032",
        "nombre": "San Juan de Sabinas",
        "area_municipio": 0.073654692357899
      },
      "geometry": {
        "type": "Point",
        "coordinates": [
          -101.389758860927,
          28.0639562128489
        ]
      }
    },
    {
      "type": "Feature",
      "properties": {
        "cvegeo": "12047",
        "nombre": "Pedro Ascencio Alquisiras",
        "area_municipio": 0.025178770654805
      },
      "geometry": {
        "type": "Point",
        "coordinates": [
          -99.8692191782222,
          18.5446642218473
        ]
      }
    },
    {
      "type": "Feature",
      "properties": {
        "cvegeo": "12059",
        "nombre": "Tepecoacuilco de Trujano",
        "area_municipio": 0.0728043534453938
      },
      "geometry": {
        "type": "Point",
        "coordinates": [
          -99.4693936856705,
          18.1009988043865
        ]
      }
    },
    {
      "type": "Feature",
      "properties": {
        "cvegeo": "12012",
        "nombre": "Ayutla de los Libres",
        "area_municipio": 0.0892275260964373
      },
      "geometry": {
        "type": "Point",
        "coordinates": [
          -99.0675363552984,
          16.9572711399446
        ]
      }
    },
    {
      "type": "Feature",
      "properties": {
        "cvegeo": "12004",
        "nombre": "Alcozauca de Guerrero",
        "area_municipio": 0.0399532981970903
      },
      "geometry": {
        "type": "Point",
        "coordinates": [
          -98.3661073086702,
          17.3758990738006
        ]
      }
    },
    {
      "type": "Feature",
      "properties": {
        "cvegeo": "12033",
        "nombre": "Huamuxtitlán",
        "area_municipio": 0.0234300237123703
      },
      "geometry": {
        "type": "Point",
        "coordinates": [
          -98.5470915767539,
          17.8121632966935
        ]
      }
    },
    {
      "type": "Feature",
      "properties": {
        "cvegeo": "12038",
        "nombre": "Zihuatanejo de Azueta",
        "area_municipio": 0.125100077826337
      },
      "geometry": {
        "type": "Point",
        "coordinates": [
          -101.434180043138,
          17.8200981567421
        ]
      }
    },
    {
      "type": "Feature",
      "properties": {
        "cvegeo": "05034",
        "nombre": "Sierra Mojada",
        "area_municipio": 0.723391222317579
      },
      "geometry": {
        "type": "Point",
        "coordinates": [
          -103.61010864864,
          27.4817676715113
        ]
      }
    },
    {
      "type": "Feature",
      "properties": {
        "cvegeo": "12021",
        "nombre": "Coyuca de Benítez",
        "area_municipio": 0.153768699635806
      },
      "geometry": {
        "type": "Point",
        "coordinates": [
          -100.058968767838,
          17.1425486346803
        ]
      }
    },
    {
      "type": "Feature",
      "properties": {
        "cvegeo": "12035",
        "nombre": "Iguala de la Independencia",
        "area_municipio": 0.048726432515328
      },
      "geometry": {
        "type": "Point",
        "coordinates": [
          -99.5821198368785,
          18.2268075869562
        ]
      }
    },
    {
      "type": "Feature",
      "properties": {
        "cvegeo": "12034",
        "nombre": "Huitzuco de los Figueroa",
        "area_municipio": 0.113406318168849
      },
      "geometry": {
        "type": "Point",
        "coordinates": [
          -99.2534217640269,
          18.2297737342188
        ]
      }
    },
    {
      "type": "Feature",
      "properties": {
        "cvegeo": "05015",
        "nombre": "Juárez",
        "area_municipio": 0.2248119747573
      },
      "geometry": {
        "type": "Point",
        "coordinates": [
          -100.693378430966,
          27.6565462964979
        ]
      }
    },
    {
      "type": "Feature",
      "properties": {
        "cvegeo": "12039",
        "nombre": "Juan R. Escudero",
        "area_municipio": 0.0347153003530281
      },
      "geometry": {
        "type": "Point",
        "coordinates": [
          -99.4729250644777,
          17.1421331121379
        ]
      }
    },
    {
      "type": "Feature",
      "properties": {
        "cvegeo": "12009",
        "nombre": "Atlamajalcingo del Monte",
        "area_municipio": 0.0124504787587912
      },
      "geometry": {
        "type": "Point",
        "coordinates": [
          -98.5826860031519,
          17.2702390583814
        ]
      }
    },
    {
      "type": "Feature",
      "properties": {
        "cvegeo": "26039",
        "nombre": "Naco",
        "area_municipio": 0.117234033979474
      },
      "geometry": {
        "type": "Point",
        "coordinates": [
          -109.957208485763,
          31.2294985762383
        ]
      }
    },
    {
      "type": "Feature",
      "properties": {
        "cvegeo": "05013",
        "nombre": "Hidalgo",
        "area_municipio": 0.103497164828252
      },
      "geometry": {
        "type": "Point",
        "coordinates": [
          -100.050503034202,
          27.8393212291337
        ]
      }
    },
    {
      "type": "Feature",
      "properties": {
        "cvegeo": "05016",
        "nombre": "Lamadrid",
        "area_municipio": 0.0613073110527315
      },
      "geometry": {
        "type": "Point",
        "coordinates": [
          -101.913719346136,
          27.1505472317052
        ]
      }
    },
    {
      "type": "Feature",
      "properties": {
        "cvegeo": "12043",
        "nombre": "Metlatónoc",
        "area_municipio": 0.0510852144497113
      },
      "geometry": {
        "type": "Point",
        "coordinates": [
          -98.4397450882703,
          17.1340261913577
        ]
      }
    },
    {
      "type": "Feature",
      "properties": {
        "cvegeo": "12006",
        "nombre": "Apaxtla",
        "area_municipio": 0.0535082106936306
      },
      "geometry": {
        "type": "Point",
        "coordinates": [
          -99.9808974144735,
          18.0912311280571
        ]
      }
    },
    {
      "type": "Feature",
      "properties": {
        "cvegeo": "12026",
        "nombre": "Cuetzala del Progreso",
        "area_municipio": 0.0318452856406354
      },
      "geometry": {
        "type": "Point",
        "coordinates": [
          -99.8147013347228,
          18.1247639924466
        ]
      }
    },
    {
      "type": "Feature",
      "properties": {
        "cvegeo": "12028",
        "nombre": "Chilapa de Álvarez",
        "area_municipio": 0.0637947962373985
      },
      "geometry": {
        "type": "Point",
        "coordinates": [
          -99.1123595624283,
          17.523691253662
        ]
      }
    },
    {
      "type": "Feature",
      "properties": {
        "cvegeo": "12040",
        "nombre": "Leonardo Bravo",
        "area_municipio": 0.0613611448129205
      },
      "geometry": {
        "type": "Point",
        "coordinates": [
          -99.7957938730296,
          17.6319355236671
        ]
      }
    },
    {
      "type": "Feature",
      "properties": {
        "cvegeo": "12058",
        "nombre": "Teloloapan",
        "area_municipio": 0.0862882356852936
      },
      "geometry": {
        "type": "Point",
        "coordinates": [
          -99.9140747811742,
          18.3582615844794
        ]
      }
    },
    {
      "type": "Feature",
      "properties": {
        "cvegeo": "12063",
        "nombre": "Tlacoapa",
        "area_municipio": 0.0237857525575934
      },
      "geometry": {
        "type": "Point",
        "coordinates": [
          -98.7861512953548,
          17.2300142785539
        ]
      }
    },
    {
      "type": "Feature",
      "properties": {
        "cvegeo": "12066",
        "nombre": "Tlapa de Comonfort",
        "area_municipio": 0.0518338513044315
      },
      "geometry": {
        "type": "Point",
        "coordinates": [
          -98.6155447458343,
          17.5621738104647
        ]
      }
    },
    {
      "type": "Feature",
      "properties": {
        "cvegeo": "12069",
        "nombre": "Xalpatláhuac",
        "area_municipio": 0.0192745962277212
      },
      "geometry": {
        "type": "Point",
        "coordinates": [
          -98.5414887741471,
          17.4298094318632
        ]
      }
    },
    {
      "type": "Feature",
      "properties": {
        "cvegeo": "12073",
        "nombre": "Zirándaro",
        "area_municipio": 0.183337690831052
      },
      "geometry": {
        "type": "Point",
        "coordinates": [
          -101.218226737027,
          18.3449268150917
        ]
      }
    },
    {
      "type": "Feature",
      "properties": {
        "cvegeo": "12068",
        "nombre": "La Unión de Isidoro Montes de Oca",
        "area_municipio": 0.150182504544885
      },
      "geometry": {
        "type": "Point",
        "coordinates": [
          -101.854951088584,
          18.0166592067762
        ]
      }
    },
    {
      "type": "Feature",
      "properties": {
        "cvegeo": "12070",
        "nombre": "Xochihuehuetlán",
        "area_municipio": 0.0223072590429603
      },
      "geometry": {
        "type": "Point",
        "coordinates": [
          -98.5092979224498,
          17.9045102282097
        ]
      }
    },
    {
      "type": "Feature",
      "properties": {
        "cvegeo": "12072",
        "nombre": "Zapotitlán Tablas",
        "area_municipio": 0.0194104148718779
      },
      "geometry": {
        "type": "Point",
        "coordinates": [
          -98.8295230773256,
          17.3245458872076
        ]
      }
    },
    {
      "type": "Feature",
      "properties": {
        "cvegeo": "12076",
        "nombre": "Acatepec",
        "area_municipio": 0.0535727179725379
      },
      "geometry": {
        "type": "Point",
        "coordinates": [
          -98.9760334968555,
          17.1748164282327
        ]
      }
    },
    {
      "type": "Feature",
      "properties": {
        "cvegeo": "12041",
        "nombre": "Malinaltepec",
        "area_municipio": 0.0401606637034142
      },
      "geometry": {
        "type": "Point",
        "coordinates": [
          -98.7046101464507,
          17.1460590582425
        ]
      }
    },
    {
      "type": "Feature",
      "properties": {
        "cvegeo": "12045",
        "nombre": "Olinalá",
        "area_municipio": 0.0602741479193049
      },
      "geometry": {
        "type": "Point",
        "coordinates": [
          -98.7838934263256,
          17.8965606029268
        ]
      }
    },
    {
      "type": "Feature",
      "properties": {
        "cvegeo": "12080",
        "nombre": "Juchitán",
        "area_municipio": 0.0214895025079082
      },
      "geometry": {
        "type": "Point",
        "coordinates": [
          -98.6776351807131,
          16.5939788081186
        ]
      }
    },
    {
      "type": "Feature",
      "properties": {
        "cvegeo": "12061",
        "nombre": "Tixtla de Guerrero",
        "area_municipio": 0.0330827306969215
      },
      "geometry": {
        "type": "Point",
        "coordinates": [
          -99.367467552959,
          17.5993500906328
        ]
      }
    },
    {
      "type": "Feature",
      "properties": {
        "cvegeo": "12074",
        "nombre": "Zitlala",
        "area_municipio": 0.0259565448551489
      },
      "geometry": {
        "type": "Point",
        "coordinates": [
          -99.1851085398722,
          17.7495844046988
        ]
      }
    },
    {
      "type": "Feature",
      "properties": {
        "cvegeo": "12075",
        "nombre": "Eduardo Neri",
        "area_municipio": 0.106462741613135
      },
      "geometry": {
        "type": "Point",
        "coordinates": [
          -99.609774843183,
          17.8014917122513
        ]
      }
    },
    {
      "type": "Feature",
      "properties": {
        "cvegeo": "12010",
        "nombre": "Atlixtac",
        "area_municipio": 0.048794565071063
      },
      "geometry": {
        "type": "Point",
        "coordinates": [
          -98.9030450678048,
          17.5143374487162
        ]
      }
    },
    {
      "type": "Feature",
      "properties": {
        "cvegeo": "12020",
        "nombre": "Copanatoyac",
        "area_municipio": 0.0260783369023729
      },
      "geometry": {
        "type": "Point",
        "coordinates": [
          -98.7019002313591,
          17.4326219708847
        ]
      }
    },
    {
      "type": "Feature",
      "properties": {
        "cvegeo": "12064",
        "nombre": "Tlalchapa",
        "area_municipio": 0.0403674931726985
      },
      "geometry": {
        "type": "Point",
        "coordinates": [
          -100.435026434007,
          18.4280221347717
        ]
      }
    },
    {
      "type": "Feature",
      "properties": {
        "cvegeo": "12077",
        "nombre": "Marquelia",
        "area_municipio": 0.0178483210353416
      },
      "geometry": {
        "type": "Point",
        "coordinates": [
          -98.745019812282,
          16.6391791922597
        ]
      }
    },
    {
      "type": "Feature",
      "properties": {
        "cvegeo": "12025",
        "nombre": "Cuautepec",
        "area_municipio": 0.0266044319476984
      },
      "geometry": {
        "type": "Point",
        "coordinates": [
          -98.9637129693422,
          16.7185387092563
        ]
      }
    },
    {
      "type": "Feature",
      "properties": {
        "cvegeo": "12046",
        "nombre": "Ometepec",
        "area_municipio": 0.0510497538038244
      },
      "geometry": {
        "type": "Point",
        "coordinates": [
          -98.3528162403255,
          16.6615645121523
        ]
      }
    },
    {
      "type": "Feature",
      "properties": {
        "cvegeo": "12023",
        "nombre": "Cuajinicuilapa",
        "area_municipio": 0.0534490632668811
      },
      "geometry": {
        "type": "Point",
        "coordinates": [
          -98.5176703742998,
          16.461968488718
        ]
      }
    },
    {
      "type": "Feature",
      "properties": {
        "cvegeo": "12078",
        "nombre": "Cochoapa el Grande",
        "area_municipio": 0.052687621672707
      },
      "geometry": {
        "type": "Point",
        "coordinates": [
          -98.4238703755983,
          17.10057443211
        ]
      }
    },
    {
      "type": "Feature",
      "properties": {
        "cvegeo": "12011",
        "nombre": "Atoyac de Álvarez",
        "area_municipio": 0.12320493992566
      },
      "geometry": {
        "type": "Point",
        "coordinates": [
          -100.342067813191,
          17.3328222392065
        ]
      }
    },
    {
      "type": "Feature",
      "properties": {
        "cvegeo": "12014",
        "nombre": "Benito Juárez",
        "area_municipio": 0.0195217875500609
      },
      "geometry": {
        "type": "Point",
        "coordinates": [
          -100.427117276424,
          17.0965417717405
        ]
      }
    },
    {
      "type": "Feature",
      "properties": {
        "cvegeo": "12016",
        "nombre": "Coahuayutla de José María Izazaga",
        "area_municipio": 0.226020131780091
      },
      "geometry": {
        "type": "Point",
        "coordinates": [
          -101.649441917916,
          18.2830262156029
        ]
      }
    },
    {
      "type": "Feature",
      "properties": {
        "cvegeo": "12057",
        "nombre": "Técpan de Galeana",
        "area_municipio": 0.241943513370673
      },
      "geometry": {
        "type": "Point",
        "coordinates": [
          -100.744364181555,
          17.4059441304323
        ]
      }
    },
    {
      "type": "Feature",
      "properties": {
        "cvegeo": "12060",
        "nombre": "Tetipac",
        "area_municipio": 0.0186493925404463
      },
      "geometry": {
        "type": "Point",
        "coordinates": [
          -99.6717606314893,
          18.6488415313226
        ]
      }
    },
    {
      "type": "Feature",
      "properties": {
        "cvegeo": "12037",
        "nombre": "Ixcateopan de Cuauhtémoc",
        "area_municipio": 0.0181419706419039
      },
      "geometry": {
        "type": "Point",
        "coordinates": [
          -99.7655919304032,
          18.4634498363598
        ]
      }
    },
    {
      "type": "Feature",
      "properties": {
        "cvegeo": "12071",
        "nombre": "Xochistlahuaca",
        "area_municipio": 0.0384324717274374
      },
      "geometry": {
        "type": "Point",
        "coordinates": [
          -98.1572688372774,
          16.8694269191011
        ]
      }
    },
    {
      "type": "Feature",
      "properties": {
        "cvegeo": "12055",
        "nombre": "Taxco de Alarcón",
        "area_municipio": 0.0556743857153532
      },
      "geometry": {
        "type": "Point",
        "coordinates": [
          -99.5974402304207,
          18.5200407850171
        ]
      }
    },
    {
      "type": "Feature",
      "properties": {
        "cvegeo": "12042",
        "nombre": "Mártir de Cuilapan",
        "area_municipio": 0.052447251427325
      },
      "geometry": {
        "type": "Point",
        "coordinates": [
          -99.3575715550073,
          17.8324991833482
        ]
      }
    },
    {
      "type": "Feature",
      "properties": {
        "cvegeo": "12065",
        "nombre": "Tlalixtaquilla de Maldonado",
        "area_municipio": 0.00999660424328912
      },
      "geometry": {
        "type": "Point",
        "coordinates": [
          -98.4091950679936,
          17.5716520006563
        ]
      }
    },
    {
      "type": "Feature",
      "properties": {
        "cvegeo": "12051",
        "nombre": "Quechultenango",
        "area_municipio": 0.0718635197167098
      },
      "geometry": {
        "type": "Point",
        "coordinates": [
          -99.185216922636,
          17.3128228513983
        ]
      }
    },
    {
      "type": "Feature",
      "properties": {
        "cvegeo": "12031",
        "nombre": "General Canuto A. Neri",
        "area_municipio": 0.0222410211768946
      },
      "geometry": {
        "type": "Point",
        "coordinates": [
          -100.104174908155,
          18.4411260578522
        ]
      }
    },
    {
      "type": "Feature",
      "properties": {
        "cvegeo": "12032",
        "nombre": "General Heliodoro Castillo",
        "area_municipio": 0.147097670585944
      },
      "geometry": {
        "type": "Point",
        "coordinates": [
          -100.026935511405,
          17.7338011923427
        ]
      }
    },
    {
      "type": "Feature",
      "properties": {
        "cvegeo": "12067",
        "nombre": "Tlapehuala",
        "area_municipio": 0.0243261259322103
      },
      "geometry": {
        "type": "Point",
        "coordinates": [
          -100.453330706445,
          18.2802852286954
        ]
      }
    },
    {
      "type": "Feature",
      "properties": {
        "cvegeo": "12053",
        "nombre": "San Marcos",
        "area_municipio": 0.0980382732302638
      },
      "geometry": {
        "type": "Point",
        "coordinates": [
          -99.4090390667608,
          16.808694509258
        ]
      }
    },
    {
      "type": "Feature",
      "properties": {
        "cvegeo": "12056",
        "nombre": "Tecoanapa",
        "area_municipio": 0.0591838403255982
      },
      "geometry": {
        "type": "Point",
        "coordinates": [
          -99.2948866554248,
          16.9804546548942
        ]
      }
    },
    {
      "type": "Feature",
      "properties": {
        "cvegeo": "12013",
        "nombre": "Azoyú",
        "area_municipio": 0.0335434293441705
      },
      "geometry": {
        "type": "Point",
        "coordinates": [
          -98.5724042306449,
          16.6836010962976
        ]
      }
    },
    {
      "type": "Feature",
      "properties": {
        "cvegeo": "12018",
        "nombre": "Copala",
        "area_municipio": 0.0251147966893775
      },
      "geometry": {
        "type": "Point",
        "coordinates": [
          -98.9306042239622,
          16.608034064495
        ]
      }
    },
    {
      "type": "Feature",
      "properties": {
        "cvegeo": "12019",
        "nombre": "Copalillo",
        "area_municipio": 0.0624842756685297
      },
      "geometry": {
        "type": "Point",
        "coordinates": [
          -99.0520424804154,
          17.9821429763808
        ]
      }
    },
    {
      "type": "Feature",
      "properties": {
        "cvegeo": "12024",
        "nombre": "Cualác",
        "area_municipio": 0.0203785332733684
      },
      "geometry": {
        "type": "Point",
        "coordinates": [
          -98.6712624961174,
          17.7382913783756
        ]
      }
    },
    {
      "type": "Feature",
      "properties": {
        "cvegeo": "12022",
        "nombre": "Coyuca de Catalán",
        "area_municipio": 0.286567382562241
      },
      "geometry": {
        "type": "Point",
        "coordinates": [
          -100.929906379398,
          18.0817943940527
        ]
      }
    },
    {
      "type": "Feature",
      "properties": {
        "cvegeo": "12008",
        "nombre": "Atenango del Río",
        "area_municipio": 0.0476418910006319
      },
      "geometry": {
        "type": "Point",
        "coordinates": [
          -99.0699586526972,
          18.1443753479842
        ]
      }
    },
    {
      "type": "Feature",
      "properties": {
        "cvegeo": "12001",
        "nombre": "Acapulco de Juárez",
        "area_municipio": 0.14657946071199
      },
      "geometry": {
        "type": "Point",
        "coordinates": [
          -99.7142958050656,
          16.9572093444092
        ]
      }
    },
    {
      "type": "Feature",
      "properties": {
        "cvegeo": "12017",
        "nombre": "Cocula",
        "area_municipio": 0.0380491239662722
      },
      "geometry": {
        "type": "Point",
        "coordinates": [
          -99.7136637414264,
          18.1322958102308
        ]
      }
    },
    {
      "type": "Feature",
      "properties": {
        "cvegeo": "12029",
        "nombre": "Chilpancingo de los Bravo",
        "area_municipio": 0.185421466455157
      },
      "geometry": {
        "type": "Point",
        "coordinates": [
          -99.6974473906258,
          17.3908335269333
        ]
      }
    },
    {
      "type": "Feature",
      "properties": {
        "cvegeo": "12007",
        "nombre": "Arcelia",
        "area_municipio": 0.0644230505597571
      },
      "geometry": {
        "type": "Point",
        "coordinates": [
          -100.198786381394,
          18.2526189696951
        ]
      }
    },
    {
      "type": "Feature",
      "properties": {
        "cvegeo": "12027",
        "nombre": "Cutzamala de Pinzón",
        "area_municipio": 0.114371722206815
      },
      "geometry": {
        "type": "Point",
        "coordinates": [
          -100.617916434755,
          18.6598160507279
        ]
      }
    },
    {
      "type": "Feature",
      "properties": {
        "cvegeo": "12002",
        "nombre": "Ahuacuotzingo",
        "area_municipio": 0.0742332014273009
      },
      "geometry": {
        "type": "Point",
        "coordinates": [
          -98.951372738829,
          17.7522733307009
        ]
      }
    },
    {
      "type": "Feature",
      "properties": {
        "cvegeo": "12054",
        "nombre": "San Miguel Totolapan",
        "area_municipio": 0.202092313640482
      },
      "geometry": {
        "type": "Point",
        "coordinates": [
          -100.318245214488,
          17.8398101644376
        ]
      }
    },
    {
      "type": "Feature",
      "properties": {
        "cvegeo": "02005",
        "nombre": "Playas de Rosarito",
        "area_municipio": 0.0478237782495157
      },
      "geometry": {
        "type": "Point",
        "coordinates": [
          -116.890739799497,
          32.2529419362819
        ]
      }
    },
    {
      "type": "Feature",
      "properties": {
        "cvegeo": "02002",
        "nombre": "Mexicali",
        "area_municipio": 1.49000673011654
      },
      "geometry": {
        "type": "Point",
        "coordinates": [
          -115.164096240286,
          31.7390196804358
        ]
      }
    },
    {
      "type": "Feature",
      "properties": {
        "cvegeo": "02001",
        "nombre": "Ensenada",
        "area_municipio": 4.96958312361894
      },
      "geometry": {
        "type": "Point",
        "coordinates": [
          -114.958520350308,
          30.0361552507244
        ]
      }
    },
    {
      "type": "Feature",
      "properties": {
        "cvegeo": "02004",
        "nombre": "Tijuana",
        "area_municipio": 0.118446835241096
      },
      "geometry": {
        "type": "Point",
        "coordinates": [
          -116.819970024807,
          32.4040719520099
        ]
      }
    },
    {
      "type": "Feature",
      "properties": {
        "cvegeo": "02003",
        "nombre": "Tecate",
        "area_municipio": 0.257684782388649
      },
      "geometry": {
        "type": "Point",
        "coordinates": [
          -116.268975178224,
          32.4408886841084
        ]
      }
    },
    {
      "type": "Feature",
      "properties": {
        "cvegeo": "15008",
        "nombre": "Amatepec",
        "area_municipio": 0.0544977575581833
      },
      "geometry": {
        "type": "Point",
        "coordinates": [
          -100.266801522109,
          18.7029925186375
        ]
      }
    },
    {
      "type": "Feature",
      "properties": {
        "cvegeo": "15080",
        "nombre": "Sultepec",
        "area_municipio": 0.0485004369903118
      },
      "geometry": {
        "type": "Point",
        "coordinates": [
          -99.9892033791572,
          18.7346210158607
        ]
      }
    },
    {
      "type": "Feature",
      "properties": {
        "cvegeo": "15082",
        "nombre": "Tejupilco",
        "area_municipio": 0.0573073107983507
      },
      "geometry": {
        "type": "Point",
        "coordinates": [
          -100.213091335314,
          18.8737972444473
        ]
      }
    },
    {
      "type": "Feature",
      "properties": {
        "cvegeo": "15085",
        "nombre": "Temascalcingo",
        "area_municipio": 0.0307384216336958
      },
      "geometry": {
        "type": "Point",
        "coordinates": [
          -100.037004860839,
          19.9212574292845
        ]
      }
    },
    {
      "type": "Feature",
      "properties": {
        "cvegeo": "15087",
        "nombre": "Temoaya",
        "area_municipio": 0.0161868664244343
      },
      "geometry": {
        "type": "Point",
        "coordinates": [
          -99.6024682364466,
          19.484955797194
        ]
      }
    },
    {
      "type": "Feature",
      "properties": {
        "cvegeo": "15088",
        "nombre": "Tenancingo",
        "area_municipio": 0.0141237900100434
      },
      "geometry": {
        "type": "Point",
        "coordinates": [
          -99.5692202600628,
          18.9670198543717
        ]
      }
    },
    {
      "type": "Feature",
      "properties": {
        "cvegeo": "15095",
        "nombre": "Tepotzotlán",
        "area_municipio": 0.0178483406488669
      },
      "geometry": {
        "type": "Point",
        "coordinates": [
          -99.3061936811204,
          19.7252131255145
        ]
      }
    },
    {
      "type": "Feature",
      "properties": {
        "cvegeo": "15124",
        "nombre": "San José del Rincón",
        "area_municipio": 0.0420345345096857
      },
      "geometry": {
        "type": "Point",
        "coordinates": [
          -100.145330507098,
          19.6195971658987
        ]
      }
    },
    {
      "type": "Feature",
      "properties": {
        "cvegeo": "15077",
        "nombre": "San Simón de Guerrero",
        "area_municipio": 0.0112189616136243
      },
      "geometry": {
        "type": "Point",
        "coordinates": [
          -100.036871729454,
          18.9800548195281
        ]
      }
    },
    {
      "type": "Feature",
      "properties": {
        "cvegeo": "15001",
        "nombre": "Acambay de Ruíz Castañeda",
        "area_municipio": 0.0410436978055768
      },
      "geometry": {
        "type": "Point",
        "coordinates": [
          -99.8715302595,
          19.9729416922787
        ]
      }
    },
    {
      "type": "Feature",
      "properties": {
        "cvegeo": "15021",
        "nombre": "Coatepec Harinas",
        "area_municipio": 0.0245821377728886
      },
      "geometry": {
        "type": "Point",
        "coordinates": [
          -99.7982569400595,
          18.9463281214365
        ]
      }
    },
    {
      "type": "Feature",
      "properties": {
        "cvegeo": "15032",
        "nombre": "Donato Guerra",
        "area_municipio": 0.0164712543619786
      },
      "geometry": {
        "type": "Point",
        "coordinates": [
          -100.184843553415,
          19.3164419831148
        ]
      }
    },
    {
      "type": "Feature",
      "properties": {
        "cvegeo": "15042",
        "nombre": "Ixtlahuaca",
        "area_municipio": 0.0288391293768198
      },
      "geometry": {
        "type": "Point",
        "coordinates": [
          -99.8069236030047,
          19.5896900032257
        ]
      }
    },
    {
      "type": "Feature",
      "properties": {
        "cvegeo": "15003",
        "nombre": "Aculco",
        "area_municipio": 0.0391574893285058
      },
      "geometry": {
        "type": "Point",
        "coordinates": [
          -99.8333466085979,
          20.1156764726586
        ]
      }
    },
    {
      "type": "Feature",
      "properties": {
        "cvegeo": "15005",
        "nombre": "Almoloya de Juárez",
        "area_municipio": 0.0413006788212868
      },
      "geometry": {
        "type": "Point",
        "coordinates": [
          -99.8294544905054,
          19.4055782927393
        ]
      }
    },
    {
      "type": "Feature",
      "properties": {
        "cvegeo": "15045",
        "nombre": "Jilotepec",
        "area_municipio": 0.0490680005417741
      },
      "geometry": {
        "type": "Point",
        "coordinates": [
          -99.5965692950173,
          20.019102882512
        ]
      }
    },
    {
      "type": "Feature",
      "properties": {
        "cvegeo": "15060",
        "nombre": "Nicolás Romero",
        "area_municipio": 0.0200259986691134
      },
      "geometry": {
        "type": "Point",
        "coordinates": [
          -99.3917497543713,
          19.6249730161856
        ]
      }
    },
    {
      "type": "Feature",
      "properties": {
        "cvegeo": "15015",
        "nombre": "Atlautla",
        "area_municipio": 0.0143917208032128
      },
      "geometry": {
        "type": "Point",
        "coordinates": [
          -98.7170646718987,
          19.031108086768
        ]
      }
    },
    {
      "type": "Feature",
      "properties": {
        "cvegeo": "15074",
        "nombre": "San Felipe del Progreso",
        "area_municipio": 0.0317560393296784
      },
      "geometry": {
        "type": "Point",
        "coordinates": [
          -99.9825233495169,
          19.6532170394453
        ]
      }
    },
    {
      "type": "Feature",
      "properties": {
        "cvegeo": "15076",
        "nombre": "San Mateo Atenco",
        "area_municipio": 0.0016093323234066
      },
      "geometry": {
        "type": "Point",
        "coordinates": [
          -99.5396274350986,
          19.2656717208468
        ]
      }
    },
    {
      "type": "Feature",
      "properties": {
        "cvegeo": "15110",
        "nombre": "Valle de Bravo",
        "area_municipio": 0.0344281320640556
      },
      "geometry": {
        "type": "Point",
        "coordinates": [
          -100.121950261395,
          19.1777677499994
        ]
      }
    },
    {
      "type": "Feature",
      "properties": {
        "cvegeo": "15111",
        "nombre": "Villa de Allende",
        "area_municipio": 0.0266203222747719
      },
      "geometry": {
        "type": "Point",
        "coordinates": [
          -100.137563722124,
          19.3872429606463
        ]
      }
    },
    {
      "type": "Feature",
      "properties": {
        "cvegeo": "15117",
        "nombre": "Zacualpan",
        "area_municipio": 0.0250228472206172
      },
      "geometry": {
        "type": "Point",
        "coordinates": [
          -99.8128110468638,
          18.7158201798267
        ]
      }
    },
    {
      "type": "Feature",
      "properties": {
        "cvegeo": "15114",
        "nombre": "Villa Victoria",
        "area_municipio": 0.0365435044163362
      },
      "geometry": {
        "type": "Point",
        "coordinates": [
          -99.9921342548024,
          19.4427502543534
        ]
      }
    },
    {
      "type": "Feature",
      "properties": {
        "cvegeo": "15036",
        "nombre": "Hueypoxtla",
        "area_municipio": 0.0202377852944858
      },
      "geometry": {
        "type": "Point",
        "coordinates": [
          -99.0280077525948,
          19.9524123461593
        ]
      }
    },
    {
      "type": "Feature",
      "properties": {
        "cvegeo": "15016",
        "nombre": "Axapusco",
        "area_municipio": 0.024695542117705
      },
      "geometry": {
        "type": "Point",
        "coordinates": [
          -98.7212962767128,
          19.7630572010414
        ]
      }
    },
    {
      "type": "Feature",
      "properties": {
        "cvegeo": "15050",
        "nombre": "Juchitepec",
        "area_municipio": 0.011374254267301
      },
      "geometry": {
        "type": "Point",
        "coordinates": [
          -98.9040824363884,
          19.093593934386
        ]
      }
    },
    {
      "type": "Feature",
      "properties": {
        "cvegeo": "15012",
        "nombre": "Atizapán",
        "area_municipio": 0.000733144316290012
      },
      "geometry": {
        "type": "Point",
        "coordinates": [
          -99.4999751577504,
          19.1755455583565
        ]
      }
    },
    {
      "type": "Feature",
      "properties": {
        "cvegeo": "15019",
        "nombre": "Capulhuac",
        "area_municipio": 0.00185356415073576
      },
      "geometry": {
        "type": "Point",
        "coordinates": [
          -99.4605509032448,
          19.2098260562005
        ]
      }
    },
    {
      "type": "Feature",
      "properties": {
        "cvegeo": "15049",
        "nombre": "Joquicingo",
        "area_municipio": 0.00395334984511474
      },
      "geometry": {
        "type": "Point",
        "coordinates": [
          -99.5144815222194,
          19.0675669720188
        ]
      }
    },
    {
      "type": "Feature",
      "properties": {
        "cvegeo": "15034",
        "nombre": "Ecatzingo",
        "area_municipio": 0.00456110077586486
      },
      "geometry": {
        "type": "Point",
        "coordinates": [
          -98.7366496053789,
          18.9680219598739
        ]
      }
    },
    {
      "type": "Feature",
      "properties": {
        "cvegeo": "15004",
        "nombre": "Almoloya de Alquisiras",
        "area_municipio": 0.0146537471235188
      },
      "geometry": {
        "type": "Point",
        "coordinates": [
          -99.8667955358171,
          18.8329588656817
        ]
      }
    },
    {
      "type": "Feature",
      "properties": {
        "cvegeo": "15007",
        "nombre": "Amanalco",
        "area_municipio": 0.0190990145923598
      },
      "geometry": {
        "type": "Point",
        "coordinates": [
          -99.9883931997309,
          19.2509314810236
        ]
      }
    },
    {
      "type": "Feature",
      "properties": {
        "cvegeo": "15053",
        "nombre": "Melchor Ocampo",
        "area_municipio": 0.00120779749875068
      },
      "geometry": {
        "type": "Point",
        "coordinates": [
          -99.1335471059828,
          19.7096501341574
        ]
      }
    },
    {
      "type": "Feature",
      "properties": {
        "cvegeo": "15072",
        "nombre": "Rayón",
        "area_municipio": 0.0019739091485543
      },
      "geometry": {
        "type": "Point",
        "coordinates": [
          -99.5670743347313,
          19.1388778164832
        ]
      }
    },
    {
      "type": "Feature",
      "properties": {
        "cvegeo": "15014",
        "nombre": "Atlacomulco",
        "area_municipio": 0.0222235864780715
      },
      "geometry": {
        "type": "Point",
        "coordinates": [
          -99.8460083817321,
          19.8099570134243
        ]
      }
    },
    {
      "type": "Feature",
      "properties": {
        "cvegeo": "15018",
        "nombre": "Calimaya",
        "area_municipio": 0.00884307174386364
      },
      "geometry": {
        "type": "Point",
        "coordinates": [
          -99.6432671613901,
          19.1655295933954
        ]
      }
    },
    {
      "type": "Feature",
      "properties": {
        "cvegeo": "15044",
        "nombre": "Jaltenco",
        "area_municipio": 0.000404162113374822
      },
      "geometry": {
        "type": "Point",
        "coordinates": [
          -99.0889302354474,
          19.7387167503664
        ]
      }
    },
    {
      "type": "Feature",
      "properties": {
        "cvegeo": "15119",
        "nombre": "Zumpahuacán",
        "area_municipio": 0.0173417011667997
      },
      "geometry": {
        "type": "Point",
        "coordinates": [
          -99.5540893449159,
          18.8001173924852
        ]
      }
    },
    {
      "type": "Feature",
      "properties": {
        "cvegeo": "15039",
        "nombre": "Ixtapaluca",
        "area_municipio": 0.0278606370529983
      },
      "geometry": {
        "type": "Point",
        "coordinates": [
          -98.7790681685803,
          19.3427968853332
        ]
      }
    },
    {
      "type": "Feature",
      "properties": {
        "cvegeo": "15010",
        "nombre": "Apaxco",
        "area_municipio": 0.00653032780371695
      },
      "geometry": {
        "type": "Point",
        "coordinates": [
          -99.1478989252413,
          19.9845089249196
        ]
      }
    },
    {
      "type": "Feature",
      "properties": {
        "cvegeo": "15011",
        "nombre": "Atenco",
        "area_municipio": 0.00754511698031683
      },
      "geometry": {
        "type": "Point",
        "coordinates": [
          -98.9615707806009,
          19.5456485808507
        ]
      }
    },
    {
      "type": "Feature",
      "properties": {
        "cvegeo": "15103",
        "nombre": "Tlalmanalco",
        "area_municipio": 0.0137598252575327
      },
      "geometry": {
        "type": "Point",
        "coordinates": [
          -98.7319696784117,
          19.2089023277691
        ]
      }
    },
    {
      "type": "Feature",
      "properties": {
        "cvegeo": "15013",
        "nombre": "Atizapán de Zaragoza",
        "area_municipio": 0.00799378217598984
      },
      "geometry": {
        "type": "Point",
        "coordinates": [
          -99.2740439897421,
          19.5648072837123
        ]
      }
    },
    {
      "type": "Feature",
      "properties": {
        "cvegeo": "15104",
        "nombre": "Tlalnepantla de Baz",
        "area_municipio": 0.00691641377954149
      },
      "geometry": {
        "type": "Point",
        "coordinates": [
          -99.1701463562892,
          19.542745324996
        ]
      }
    },
    {
      "type": "Feature",
      "properties": {
        "cvegeo": "15108",
        "nombre": "Tultepec",
        "area_municipio": 0.0023060340718593
      },
      "geometry": {
        "type": "Point",
        "coordinates": [
          -99.1196483725682,
          19.6793051209141
        ]
      }
    },
    {
      "type": "Feature",
      "properties": {
        "cvegeo": "15058",
        "nombre": "Nezahualcóyotl",
        "area_municipio": 0.00544195733745055
      },
      "geometry": {
        "type": "Point",
        "coordinates": [
          -99.0226995158956,
          19.4225786553219
        ]
      }
    },
    {
      "type": "Feature",
      "properties": {
        "cvegeo": "15122",
        "nombre": "Valle de Chalco Solidaridad",
        "area_municipio": 0.00400546905867262
      },
      "geometry": {
        "type": "Point",
        "coordinates": [
          -98.9483605249275,
          19.2763893625122
        ]
      }
    },
    {
      "type": "Feature",
      "properties": {
        "cvegeo": "15020",
        "nombre": "Coacalco de Berriozábal",
        "area_municipio": 0.00301688761714893
      },
      "geometry": {
        "type": "Point",
        "coordinates": [
          -99.1023955115308,
          19.6262899776727
        ]
      }
    },
    {
      "type": "Feature",
      "properties": {
        "cvegeo": "15022",
        "nombre": "Cocotitlán",
        "area_municipio": 0.00126971007702176
      },
      "geometry": {
        "type": "Point",
        "coordinates": [
          -98.8588949244446,
          19.2260295697311
        ]
      }
    },
    {
      "type": "Feature",
      "properties": {
        "cvegeo": "24048",
        "nombre": "Villa de la Paz",
        "area_municipio": 0.0127319230577901
      },
      "geometry": {
        "type": "Point",
        "coordinates": [
          -100.75687082947,
          23.6649199490912
        ]
      }
    },
    {
      "type": "Feature",
      "properties": {
        "cvegeo": "24041",
        "nombre": "Tanlajás",
        "area_municipio": 0.0327157241631169
      },
      "geometry": {
        "type": "Point",
        "coordinates": [
          -98.8261018596221,
          21.7227929285147
        ]
      }
    },
    {
      "type": "Feature",
      "properties": {
        "cvegeo": "24029",
        "nombre": "San Martín Chalchicuautla",
        "area_municipio": 0.0359841162155819
      },
      "geometry": {
        "type": "Point",
        "coordinates": [
          -98.619503574306,
          21.3997866521151
        ]
      }
    },
    {
      "type": "Feature",
      "properties": {
        "cvegeo": "24051",
        "nombre": "Villa Hidalgo",
        "area_municipio": 0.131467252925638
      },
      "geometry": {
        "type": "Point",
        "coordinates": [
          -100.67340830044,
          22.640763568807
        ]
      }
    },
    {
      "type": "Feature",
      "properties": {
        "cvegeo": "15023",
        "nombre": "Coyotepec",
        "area_municipio": 0.00344127450805158
      },
      "geometry": {
        "type": "Point",
        "coordinates": [
          -99.2222053421765,
          19.7899844908038
        ]
      }
    },
    {
      "type": "Feature",
      "properties": {
        "cvegeo": "15070",
        "nombre": "La Paz",
        "area_municipio": 0.00321519687517978
      },
      "geometry": {
        "type": "Point",
        "coordinates": [
          -98.9467513814474,
          19.3610403514895
        ]
      }
    },
    {
      "type": "Feature",
      "properties": {
        "cvegeo": "15030",
        "nombre": "Chiconcuac",
        "area_municipio": 0.00058860069629142
      },
      "geometry": {
        "type": "Point",
        "coordinates": [
          -98.8966957955522,
          19.5562787931029
        ]
      }
    },
    {
      "type": "Feature",
      "properties": {
        "cvegeo": "15054",
        "nombre": "Metepec",
        "area_municipio": 0.00580336842940809
      },
      "geometry": {
        "type": "Point",
        "coordinates": [
          -99.5882601001231,
          19.2473892344067
        ]
      }
    },
    {
      "type": "Feature",
      "properties": {
        "cvegeo": "15043",
        "nombre": "Xalatlaco",
        "area_municipio": 0.00929475669263094
      },
      "geometry": {
        "type": "Point",
        "coordinates": [
          -99.3592706346754,
          19.1652452238271
        ]
      }
    },
    {
      "type": "Feature",
      "properties": {
        "cvegeo": "15006",
        "nombre": "Almoloya del Río",
        "area_municipio": 0.000786421674138857
      },
      "geometry": {
        "type": "Point",
        "coordinates": [
          -99.4918729894897,
          19.1587797947844
        ]
      }
    },
    {
      "type": "Feature",
      "properties": {
        "cvegeo": "24043",
        "nombre": "Tierra Nueva",
        "area_municipio": 0.0417650975151089
      },
      "geometry": {
        "type": "Point",
        "coordinates": [
          -100.497420379642,
          21.664237499529
        ]
      }
    },
    {
      "type": "Feature",
      "properties": {
        "cvegeo": "15027",
        "nombre": "Chapultepec",
        "area_municipio": 0.00103049402489902
      },
      "geometry": {
        "type": "Point",
        "coordinates": [
          -99.5504536798762,
          19.2065058385031
        ]
      }
    },
    {
      "type": "Feature",
      "properties": {
        "cvegeo": "15026",
        "nombre": "Chapa de Mota",
        "area_municipio": 0.0251975589198104
      },
      "geometry": {
        "type": "Point",
        "coordinates": [
          -99.5509391081286,
          19.8257553510198
        ]
      }
    },
    {
      "type": "Feature",
      "properties": {
        "cvegeo": "15118",
        "nombre": "Zinacantepec",
        "area_municipio": 0.0266056454486539
      },
      "geometry": {
        "type": "Point",
        "coordinates": [
          -99.7977907861915,
          19.2153213004056
        ]
      }
    },
    {
      "type": "Feature",
      "properties": {
        "cvegeo": "15038",
        "nombre": "Isidro Fabela",
        "area_municipio": 0.00686312088415103
      },
      "geometry": {
        "type": "Point",
        "coordinates": [
          -99.4403760791284,
          19.5542432814801
        ]
      }
    },
    {
      "type": "Feature",
      "properties": {
        "cvegeo": "15040",
        "nombre": "Ixtapan de la Sal",
        "area_municipio": 0.00986887741353613
      },
      "geometry": {
        "type": "Point",
        "coordinates": [
          -99.6908410954811,
          18.8506965529354
        ]
      }
    },
    {
      "type": "Feature",
      "properties": {
        "cvegeo": "15041",
        "nombre": "Ixtapan del Oro",
        "area_municipio": 0.00853574294494583
      },
      "geometry": {
        "type": "Point",
        "coordinates": [
          -100.277849909209,
          19.2574263848974
        ]
      }
    },
    {
      "type": "Feature",
      "properties": {
        "cvegeo": "15062",
        "nombre": "Ocoyoacac",
        "area_municipio": 0.0119191412150734
      },
      "geometry": {
        "type": "Point",
        "coordinates": [
          -99.4062825462165,
          19.2595152136912
        ]
      }
    },
    {
      "type": "Feature",
      "properties": {
        "cvegeo": "15052",
        "nombre": "Malinalco",
        "area_municipio": 0.0180013746876242
      },
      "geometry": {
        "type": "Point",
        "coordinates": [
          -99.4856424500398,
          18.8819180406264
        ]
      }
    },
    {
      "type": "Feature",
      "properties": {
        "cvegeo": "15046",
        "nombre": "Jilotzingo",
        "area_municipio": 0.0100219237231947
      },
      "geometry": {
        "type": "Point",
        "coordinates": [
          -99.3904369667451,
          19.5060472084668
        ]
      }
    },
    {
      "type": "Feature",
      "properties": {
        "cvegeo": "15051",
        "nombre": "Lerma",
        "area_municipio": 0.019842989003845
      },
      "geometry": {
        "type": "Point",
        "coordinates": [
          -99.4748569786496,
          19.3450805560702
        ]
      }
    },
    {
      "type": "Feature",
      "properties": {
        "cvegeo": "15066",
        "nombre": "Otzoloapan",
        "area_municipio": 0.0134825062897482
      },
      "geometry": {
        "type": "Point",
        "coordinates": [
          -100.318947170312,
          19.1080300576535
        ]
      }
    },
    {
      "type": "Feature",
      "properties": {
        "cvegeo": "15067",
        "nombre": "Otzolotepec",
        "area_municipio": 0.00966473821022903
      },
      "geometry": {
        "type": "Point",
        "coordinates": [
          -99.5272885792166,
          19.4506388219993
        ]
      }
    },
    {
      "type": "Feature",
      "properties": {
        "cvegeo": "15071",
        "nombre": "Polotitlán",
        "area_municipio": 0.0109510697421975
      },